source_timestamp,destination_timestamp,x,y,z,roll,pitch,yaw
1418755480341345,1418755480278853,5.209727e-04,-2.855451e-04,2.987521e-04,-2.754793e-05,1.914264e-06,2.430650e-05
1418755480403837,1418755480341345,-1.338633e-04,-1.509316e-05,-6.368385e-05,-7.526887e-05,-2.070254e-05,-3.110825e-06
1418755480466328,1418755480403837,9.994406e-05,-1.296401e-04,-3.444644e-05,-3.963193e-05,1.017535e-05,2.480517e-05
1418755480528820,1418755480466328,2.482887e-04,-4.301556e-04,1.258640e-04,-3.226479e-05,-6.384655e-06,3.837418e-05
1418755480591311,1418755480528820,5.200848e-05,2.311183e-05,-9.137559e-05,9.092777e-06,-2.232471e-05,-5.899618e-06
1418755480653803,1418755480591311,-1.415767e-04,1.671013e-04,-3.280997e-05,1.760229e-05,2.061601e-05,-2.381121e-05
1418755480716294,1418755480653803,2.679007e-05,-1.514479e-05,-4.062424e-05,3.658101e-05,1.503178e-05,1.903539e-07
1418755480778784,1418755480716294,-3.217121e-04,-1.960296e-05,-1.612752e-04,-1.001083e-05,-1.552727e-05,-3.459007e-07
1418755480841277,1418755480778784,-1.162023e-04,1.131698e-04,-5.470627e-05,-2.548039e-05,-2.997669e-07,-7.665815e-06
1418755480903769,1418755480841277,-2.423661e-04,2.429265e-04,-8.507740e-05,6.213069e-06,9.647842e-07,-1.029642e-07
1418755480966260,1418755480903769,3.444579e-04,-2.069719e-04,3.009040e-05,7.414854e-06,-2.262212e-05,1.463589e-05
1418755481028751,1418755480966260,-3.162135e-04,5.581153e-05,-1.484118e-04,-8.874450e-05,-1.004142e-05,5.378551e-06
1418755481091241,1418755481028751,2.308811e-04,-1.112803e-04,2.130270e-04,8.574426e-05,4.766806e-05,2.126462e-05
1418755481153732,1418755481091241,-1.907675e-04,-3.829064e-05,-1.793200e-05,5.372266e-06,1.039167e-05,1.522101e-05
1418755481216226,1418755481153732,-2.917406e-05,-3.158400e-05,-9.311771e-05,3.533515e-05,-2.987963e-05,1.714947e-05
1418755481278717,1418755481216226,1.051802e-04,-6.709191e-05,5.416504e-05,3.108228e-05,5.313560e-06,-1.012839e-05
1418755481341209,1418755481278717,2.289233e-04,2.176770e-04,2.997062e-05,4.606483e-05,6.964615e-06,-5.441454e-06
1418755481403699,1418755481341209,-1.953755e-04,-9.136619e-05,-1.111487e-04,8.818363e-05,-3.245819e-07,2.180868e-06
1418755481466192,1418755481403699,2.851057e-05,7.180111e-05,4.325594e-05,3.047466e-05,2.140160e-05,-1.327236e-05
1418755481528682,1418755481466192,-2.130669e-05,-3.692754e-05,1.711943e-05,-5.188541e-05,1.345128e-05,1.403544e-05
1418755481591175,1418755481528682,-1.740761e-04,-1.919070e-04,-4.062789e-05,5.446103e-05,9.299676e-06,4.912929e-06
1418755481653666,1418755481591175,-5.446461e-04,2.849712e-05,-1.680931e-04,1.109862e-04,-9.544979e-07,-1.608504e-05
1418755481716158,1418755481653666,-4.237813e-04,-3.069351e-04,-1.567869e-04,1.267677e-05,9.200858e-06,1.637820e-05
1418755481778649,1418755481716158,2.405184e-05,-1.643236e-05,8.428266e-05,1.819516e-05,-1.126798e-06,2.574629e-06
1418755481841140,1418755481778649,-2.222959e-04,-3.886464e-05,-1.112079e-04,6.274570e-05,2.873500e-06,2.163637e-06
1418755481903632,1418755481841140,4.384237e-05,-7.643929e-06,-1.267039e-05,-2.309072e-05,1.535360e-05,-7.896744e-06
1418755481966123,1418755481903632,-7.324849e-05,4.441363e-05,-7.430220e-05,7.982756e-05,7.953931e-07,-8.178653e-06
1418755482028615,1418755481966123,-1.276390e-04,-7.476490e-05,2.273500e-05,-5.173713e-05,-1.249959e-05,1.694155e-05
1418755482091106,1418755482028615,-2.380288e-04,4.901438e-05,-8.513245e-05,-3.625830e-05,-2.537626e-05,1.514549e-06
1418755482153598,1418755482091106,1.420152e-04,1.212299e-04,6.335142e-05,7.518975e-05,2.243608e-05,-2.908858e-05
1418755482216089,1418755482153598,1.698988e-04,-5.210777e-06,-2.448767e-05,4.628574e-05,1.500914e-05,-7.072544e-06
1418755482278580,1418755482216089,-1.515104e-04,1.271750e-04,-7.553691e-05,8.930381e-06,8.244924e-06,-1.744105e-05
1418755482341072,1418755482278580,-1.290244e-04,4.414961e-05,-1.719991e-04,3.396157e-05,1.818840e-05,2.869364e-05
1418755482403563,1418755482341072,-1.137455e-04,2.348142e-04,-1.197222e-05,-3.562422e-05,-1.506690e-05,-1.930206e-05
1418755482466055,1418755482403563,2.623509e-04,5.408681e-04,4.496549e-04,-1.341453e-05,4.131135e-05,-4.154621e-05
1418755482528546,1418755482466055,1.204926e-04,-2.405920e-05,1.032586e-04,-1.969362e-05,3.627863e-05,1.982071e-05
1418755482591038,1418755482528546,-1.259390e-04,4.309835e-06,-3.688305e-05,4.920277e-05,1.149994e-05,2.132923e-06
1418755482653529,1418755482591038,1.641637e-04,2.163772e-05,-1.726590e-05,2.797967e-05,-5.001495e-06,9.445408e-07
1418755482716021,1418755482653529,2.593395e-05,-1.635971e-05,-8.606358e-05,-5.462449e-05,1.594055e-05,1.569056e-05
1418755482778512,1418755482716021,1.339661e-04,9.083315e-05,2.612400e-06,-3.072930e-05,-1.579543e-05,-1.781530e-05
1418755482841004,1418755482778512,-3.073321e-04,1.461006e-04,-1.287475e-04,5.340983e-05,-4.394996e-05,3.684794e-06
1418755482903496,1418755482841004,-8.550412e-05,-1.363914e-04,-3.716161e-05,3.812844e-06,-1.417261e-05,2.801515e-06
1418755482965987,1418755482903496,6.050025e-05,1.315803e-04,-5.104366e-07,1.206851e-05,1.774217e-06,7.392800e-06
1418755483028479,1418755482965987,-1.405631e-04,3.196060e-04,5.092944e-05,8.124270e-05,3.173999e-05,-3.353993e-05
1418755483090970,1418755483028479,1.411086e-04,-1.599401e-04,1.060225e-04,-6.743817e-05,2.004655e-05,1.526631e-05
1418755483153461,1418755483090970,1.177415e-05,-1.641637e-05,-4.179784e-05,2.083557e-05,-2.761609e-05,1.551552e-05
1418755483215953,1418755483153461,-2.732643e-05,4.744879e-06,4.125839e-05,2.853771e-05,2.135868e-05,-2.264524e-05
1418755483278444,1418755483215953,3.631316e-05,5.844242e-05,2.586992e-05,-5.021789e-07,4.417044e-06,-2.441784e-05
1418755483340936,1418755483278444,-6.033043e-04,1.578650e-04,-1.987400e-04,7.167580e-05,-1.827040e-05,-9.888453e-06
1418755483403427,1418755483340936,4.388265e-05,-2.425291e-04,1.007087e-04,-2.626464e-05,-1.096060e-05,2.530504e-05
1418755483465919,1418755483403427,-2.917518e-04,1.136287e-04,-2.301708e-05,-8.193221e-05,1.602165e-05,-3.652289e-05
1418755483528410,1418755483465919,3.116830e-05,2.150803e-04,8.117566e-06,5.904765e-05,1.764781e-06,-1.104963e-05
1418755483590901,1418755483528410,5.701208e-04,-1.220319e-03,2.307145e-04,-3.539814e-05,1.837344e-05,1.160884e-04
1418755483653393,1418755483590901,-1.619897e-04,-7.118714e-05,-5.489272e-05,-6.975217e-05,-1.990796e-05,-1.393007e-05
1418755483715884,1418755483653393,1.245606e-04,3.135254e-05,5.262127e-05,-8.515817e-05,-1.561380e-06,3.337956e-06
1418755483778376,1418755483715884,6.735093e-04,1.877009e-05,3.482164e-04,2.403212e-05,7.401844e-05,-6.143708e-07
1418755483840868,1418755483778376,-9.572945e-05,-8.115594e-05,-3.686355e-05,-1.182063e-04,-1.545495e-05,1.781769e-05
1418755483903358,1418755483840868,1.813168e-04,1.364951e-04,9.264432e-05,2.398338e-05,8.507523e-07,-1.748722e-05
1418755483965850,1418755483903358,2.984012e-04,-8.364234e-05,8.755753e-05,6.263857e-06,1.362202e-05,1.829782e-05
1418755484028341,1418755483965850,-2.023289e-04,-1.277625e-04,-9.128436e-05,-1.427095e-05,2.083693e-05,1.816315e-05
1418755484090833,1418755484028341,3.292232e-05,1.295318e-04,-2.829948e-06,1.177623e-04,1.472332e-05,-1.538115e-05
1418755484153324,1418755484090833,3.392451e-04,-1.275577e-04,1.029788e-04,2.064802e-05,3.180194e-05,2.544621e-05
1418755484215816,1418755484153324,-2.336894e-04,-1.180455e-04,-1.553141e-04,-3.693453e-05,-1.959451e-05,1.056452e-05
1418755484278308,1418755484215816,1.862933e-06,-2.206468e-05,1.116601e-05,4.348345e-05,1.455998e-05,-4.580807e-06
1418755484340799,1418755484278308,1.799746e-04,-9.676334e-05,8.032756e-05,1.923913e-05,1.946102e-05,1.351459e-05
1418755484403291,1418755484340799,2.901709e-05,2.580740e-05,-3.055016e-05,-1.007507e-04,-4.022073e-07,-9.349765e-06
1418755484465781,1418755484403291,-6.565110e-05,1.569296e-04,-4.472150e-05,2.814107e-05,1.084678e-05,-1.944848e-05
1418755484528274,1418755484465781,1.053752e-05,-5.772134e-05,-3.126234e-05,1.467439e-05,-1.103856e-05,9.698296e-06
1418755484590765,1418755484528274,-4.088903e-05,-9.490711e-06,1.006243e-05,-7.012941e-05,-2.201715e-05,2.508822e-05
1418755484653256,1418755484590765,3.142675e-04,4.218821e-05,9.811404e-05,4.756662e-05,4.179924e-06,-1.570532e-05
1418755484715748,1418755484653256,1.791897e-04,1.085334e-04,-4.361707e-06,-4.980496e-05,-2.413088e-05,-7.352738e-06
1418755484778240,1418755484715748,-1.050865e-03,-6.370229e-04,2.685335e-05,6.979507e-05,2.491478e-05,5.191929e-05
1418755484840731,1418755484778240,1.095185e-05,3.542047e-05,2.980524e-06,-3.625330e-05,-2.148278e-05,1.087742e-05
1418755484903222,1418755484840731,7.842854e-05,-1.730427e-05,5.386894e-05,3.570905e-05,1.897957e-05,-1.313749e-05
1418755484965714,1418755484903222,6.512234e-05,-1.557063e-05,5.762972e-05,-6.156099e-05,-1.385979e-06,-1.632250e-05
1418755485028205,1418755484965714,1.006009e-04,2.526112e-05,2.194457e-05,-1.225218e-05,6.839306e-06,-6.754342e-06
1418755485090697,1418755485028205,-5.954889e-05,-2.054890e-05,-9.743745e-05,-4.982594e-06,-1.241452e-05,-8.903435e-06
1418755485153188,1418755485090697,3.247002e-06,2.531885e-05,5.560324e-05,-3.896780e-05,-8.519236e-06,1.800889e-05
1418755485215679,1418755485153188,-1.879383e-04,-7.963313e-05,3.273305e-05,9.974401e-05,1.022894e-05,1.648494e-07
1418755485278171,1418755485215679,3.632271e-04,-1.377799e-03,4.193325e-04,-4.315809e-05,1.280706e-05,1.225565e-04
1418755485340662,1418755485278171,-4.934392e-05,2.170442e-05,-1.656190e-05,-3.206583e-05,6.941567e-06,-1.683067e-05
1418755485403154,1418755485340662,-1.197816e-04,-3.510800e-05,-5.063332e-06,-6.792349e-06,1.613934e-05,1.502878e-05
1418755485465645,1418755485403154,5.194900e-05,-1.980771e-05,5.564362e-05,-2.067591e-05,1.144087e-07,1.015680e-05
1418755485528137,1418755485465645,-8.140744e-05,-7.611557e-06,-4.078519e-05,1.906771e-05,-2.161681e-06,-2.284968e-05
1418755485590629,1418755485528137,-4.430473e-04,2.000100e-05,-1.957430e-04,8.205739e-06,-1.008708e-05,2.284482e-05
1418755485653119,1418755485590629,-3.163497e-05,-5.470407e-06,2.144891e-05,5.449656e-05,3.498187e-05,-4.435208e-07
1418755485715612,1418755485653119,-1.114658e-04,9.572252e-05,5.931013e-05,4.816168e-05,1.494091e-06,-1.456397e-05
1418755485778103,1418755485715612,-1.420038e-04,1.150927e-04,-3.709748e-05,-2.252207e-06,1.257772e-05,-1.795250e-05
1418755485840594,1418755485778103,1.381564e-04,-1.633478e-04,3.943935e-05,-2.315670e-05,-3.157316e-06,1.292194e-05
1418755485903085,1418755485840594,3.483033e-04,-9.261638e-05,1.029786e-04,-2.338548e-05,8.722987e-06,-5.108147e-06
1418755485965577,1418755485903085,2.099972e-04,2.878236e-04,8.138273e-05,-3.669310e-05,-6.664490e-06,-1.657183e-05
1418755486028068,1418755485965577,-3.989026e-05,2.097190e-05,-4.538424e-06,2.506370e-05,3.199032e-05,-3.962877e-06
1418755486090560,1418755486028068,-4.232083e-05,1.410996e-05,-4.187937e-05,6.592471e-07,-2.410901e-05,-2.175703e-06
1418755486153051,1418755486090560,-6.662553e-04,-2.428353e-04,-7.229587e-05,-3.477021e-05,-3.070365e-05,-1.226530e-05
1418755486215543,1418755486153051,-1.643177e-05,1.960687e-05,-2.371739e-05,-8.824978e-06,-1.973901e-05,4.258177e-06
1418755486278034,1418755486215543,2.955729e-05,1.257216e-05,-3.431716e-05,-2.833099e-05,9.681639e-06,1.492324e-05
1418755486340526,1418755486278034,-1.764565e-04,1.415531e-04,1.829960e-05,-2.731735e-05,2.984704e-05,-1.034006e-05
1418755486403018,1418755486340526,-1.009640e-03,-5.910037e-04,4.788401e-04,3.220372e-05,5.655928e-05,3.302390e-05
1418755486465509,1418755486403018,-2.185889e-04,-2.178606e-05,-1.041157e-04,-1.005473e-05,-2.147205e-05,-2.651455e-05
1418755486528000,1418755486465509,1.156140e-03,-5.647315e-04,4.135403e-04,-6.071902e-05,-3.109353e-05,4.761446e-05
1418755486590492,1418755486528000,2.624424e-04,-2.063203e-04,1.299797e-04,3.519069e-05,1.251118e-05,1.751515e-05
1418755486652983,1418755486590492,-1.574412e-04,-3.013858e-05,-1.101769e-05,4.358192e-06,1.438517e-05,2.877405e-06
1418755486715475,1418755486652983,-9.074280e-07,-1.013214e-05,1.126842e-05,-2.404681e-05,2.302208e-06,-1.708724e-05
1418755486777966,1418755486715475,-1.071853e-05,-1.021619e-05,-1.914090e-06,-2.394267e-05,-1.215362e-05,2.251900e-05
1418755486840458,1418755486777966,1.538767e-04,-4.654785e-05,1.010369e-04,2.329980e-05,7.510918e-06,1.008247e-05
1418755486902950,1418755486840458,3.805266e-04,4.683399e-04,9.933662e-05,9.257370e-05,1.241322e-05,-4.047126e-05
1418755486965440,1418755486902950,2.329772e-04,-2.040529e-04,1.104765e-04,-1.075007e-05,2.079267e-05,1.724707e-05
1418755487027932,1418755486965440,-7.529485e-04,-9.061874e-05,-1.807154e-04,-2.603023e-05,1.858638e-05,1.537060e-05
1418755487090423,1418755487027932,3.167524e-05,5.301720e-05,1.240133e-05,2.967881e-05,-7.185873e-06,-1.216808e-05
1418755487152915,1418755487090423,-1.671378e-06,1.383384e-04,-1.238951e-05,4.376355e-05,-4.807994e-06,-2.045506e-05
1418755487215407,1418755487152915,-1.567743e-05,-1.411546e-05,-1.651719e-05,-7.101641e-05,-3.177787e-05,-1.285346e-05
1418755487277898,1418755487215407,-1.669669e-04,4.087715e-04,4.976742e-05,-1.445706e-04,-2.707643e-05,-2.740157e-05
1418755487340390,1418755487277898,-1.963410e-04,8.470196e-05,-9.141451e-05,1.110861e-05,7.056556e-06,-7.753777e-06
1418755487402881,1418755487340390,5.800228e-04,-3.750387e-04,1.907563e-04,3.756116e-05,2.222139e-05,6.243483e-05
1418755487465373,1418755487402881,-9.566691e-05,1.072071e-05,-3.080551e-04,-3.755552e-05,-2.683181e-05,-1.949353e-05
1418755487527864,1418755487465373,-3.855641e-05,1.331152e-04,1.541194e-05,8.145458e-05,1.783457e-05,-1.459711e-05
1418755487590355,1418755487527864,2.261887e-04,-4.010127e-05,9.976312e-05,-6.863031e-06,1.591600e-05,2.783332e-05
1418755487652847,1418755487590355,-8.354702e-05,-2.662699e-04,-2.118321e-04,3.738766e-06,-1.812199e-05,2.341091e-05
1418755487715336,1418755487652847,-3.163941e-05,5.386052e-06,1.646574e-05,6.707772e-05,-2.229222e-06,5.321849e-06
1418755487777828,1418755487715336,9.240278e-06,-4.954771e-05,1.534204e-05,-1.730498e-05,-1.643081e-05,1.638814e-05
1418755487840321,1418755487777828,2.693930e-04,-2.567055e-05,1.669211e-04,-3.982396e-05,3.002768e-06,-2.505816e-06
1418755487902812,1418755487840321,4.625858e-06,-1.750338e-04,-1.559902e-04,-1.298679e-05,-3.688592e-05,1.698987e-05
1418755487965304,1418755487902812,2.552455e-04,-4.812012e-05,1.022279e-04,3.642015e-05,2.214783e-05,2.080006e-07
1418755488027796,1418755487965304,3.317039e-04,7.596294e-05,1.702943e-04,-1.946544e-05,3.795067e-05,-2.534941e-05
1418755488090287,1418755488027796,-4.754402e-04,-8.009012e-05,-1.117222e-04,1.477810e-05,-2.360706e-05,1.714508e-05
1418755488152778,1418755488090287,1.645815e-04,8.365868e-04,-1.339959e-04,4.307379e-05,-7.799907e-06,-7.394051e-05
1418755488215270,1418755488152778,-1.113357e-04,-3.234203e-04,-2.445818e-04,5.966735e-05,-2.754021e-05,7.410224e-06
1418755488277761,1418755488215270,-2.291037e-04,-4.280049e-06,-2.993985e-05,-2.129992e-05,1.454665e-05,-1.960665e-05
1418755488340253,1418755488277761,-1.242163e-04,-2.536851e-04,-1.313541e-04,1.664584e-05,-1.589304e-05,4.098528e-05
1418755488402745,1418755488340253,1.402615e-04,3.422664e-05,1.237041e-05,-1.157161e-05,-1.323157e-05,3.036230e-07
1418755488465236,1418755488402745,8.283553e-05,6.057172e-05,-8.877296e-06,1.255002e-05,-1.094527e-05,-1.553782e-05
1418755488527727,1418755488465236,1.317428e-04,-3.211234e-04,-1.708634e-04,-2.929136e-07,-1.240499e-05,2.223284e-05
1418755488590219,1418755488527727,-1.291813e-04,-4.170441e-05,4.764940e-06,-2.800443e-05,2.091828e-05,2.052430e-06
1418755488652710,1418755488590219,8.143991e-05,1.066965e-05,-1.787062e-05,-5.578401e-05,-1.402566e-05,-1.377901e-05
1418755488715201,1418755488652710,-5.198359e-05,-1.173470e-05,-6.531120e-05,-7.046170e-05,6.068031e-07,1.032630e-05
1418755488777692,1418755488715201,-5.883454e-05,2.212659e-05,4.235761e-05,6.334040e-05,2.501698e-05,-5.472454e-06
1418755488840185,1418755488777692,2.030083e-04,6.642202e-05,6.097507e-05,7.840040e-06,-6.858861e-06,3.438090e-06
1418755488902676,1418755488840185,2.745386e-04,-1.012420e-04,-7.514172e-07,-1.344099e-05,-2.258625e-06,5.564186e-08
1418755488965168,1418755488902676,3.609788e-05,1.899405e-05,-1.621141e-05,-8.454011e-08,-1.450860e-05,4.803336e-07
1418755489027659,1418755488965168,4.380526e-05,5.753896e-04,2.894662e-05,-3.991271e-05,-2.296462e-05,-3.416482e-05
1418755489090150,1418755489027659,7.095823e-05,1.336672e-05,9.256841e-06,1.830494e-05,-5.738872e-06,-1.738763e-05
1418755489152641,1418755489090150,-1.050862e-04,1.714840e-04,-6.450561e-05,3.317008e-05,-1.019801e-05,-4.609501e-06
1418755489215134,1418755489152641,-1.199358e-03,-3.961548e-04,2.079567e-04,-5.112320e-05,4.901353e-06,2.929324e-05
1418755489277625,1418755489215134,1.017404e-04,1.684251e-04,-8.985277e-06,1.095704e-05,-9.258850e-06,-7.822893e-06
1418755489340114,1418755489277625,-4.762998e-04,2.500331e-04,4.642676e-05,-1.361226e-05,2.534659e-05,-3.034758e-05
1418755489402608,1418755489340114,2.871661e-05,6.964582e-06,-2.425298e-05,-6.875898e-06,-2.490846e-05,-4.182679e-06
1418755489465100,1418755489402608,-3.232652e-04,-1.302876e-03,2.920078e-04,-5.427310e-05,1.695349e-05,1.169035e-04
1418755489527590,1418755489465100,-1.217747e-04,4.294845e-05,-3.734636e-05,1.473821e-05,1.303823e-06,-2.321484e-05
1418755489590082,1418755489527590,-4.312619e-04,-2.752706e-04,-1.535868e-04,-1.757336e-05,2.215647e-05,1.992017e-05
1418755489652574,1418755489590082,-4.279446e-04,2.553154e-04,-1.542115e-04,-3.263148e-05,-1.916467e-05,-2.782096e-05
1418755489715065,1418755489652574,1.596708e-05,-4.927699e-05,3.958637e-07,-1.539059e-05,-2.920243e-05,4.635638e-06
1418755489777554,1418755489715065,-6.579447e-04,-4.060331e-04,4.477026e-05,-2.335200e-05,5.710484e-06,2.776828e-05
1418755489840048,1418755489777554,-1.625999e-04,-7.669047e-05,-1.749162e-06,2.222430e-05,1.806383e-05,-3.456292e-06
1418755489902539,1418755489840048,-2.367129e-04,-1.766760e-04,5.853174e-05,-5.209067e-05,-1.704725e-05,2.476512e-05
1418755489965031,1418755489902539,1.988322e-04,3.122553e-04,2.151737e-04,3.299041e-05,3.169980e-05,8.491823e-07
1418755490027522,1418755489965031,1.123365e-04,2.633705e-05,5.588386e-05,-3.002790e-05,5.058114e-06,-2.708309e-05
1418755490090014,1418755490027522,3.468958e-04,-3.413847e-04,8.500858e-05,-2.202730e-05,3.313145e-06,2.697401e-05
1418755490152506,1418755490090014,-2.634599e-05,1.663711e-04,1.078398e-05,1.592958e-05,-8.017395e-06,8.019541e-06
1418755490214996,1418755490152506,1.687965e-04,1.667803e-04,1.379600e-04,5.562195e-05,1.838622e-05,-1.826914e-05
1418755490277488,1418755490214996,-5.757796e-06,-3.224931e-06,3.336198e-05,5.406630e-05,-1.008310e-05,6.405837e-06
1418755490339980,1418755490277488,1.239845e-04,4.181252e-05,6.580391e-05,5.794417e-05,2.564577e-05,2.435455e-05
1418755490402472,1418755490339980,-2.916993e-05,-8.158180e-06,-4.052952e-05,5.993008e-05,6.303055e-06,2.372586e-06
1418755490464963,1418755490402472,3.118831e-04,-9.701880e-05,7.320428e-05,-7.719172e-06,2.411176e-05,5.260878e-06
1418755490527454,1418755490464963,3.731047e-04,1.955692e-04,1.220922e-04,-9.139841e-05,-1.426743e-05,-3.557638e-05
1418755490589946,1418755490527454,-3.958718e-04,-2.747386e-05,-1.030262e-04,7.230127e-05,1.229070e-05,1.821489e-05
1418755490652438,1418755490589946,7.122410e-05,1.602424e-05,7.979098e-05,-2.849781e-06,1.703230e-05,-3.342899e-06
1418755490714928,1418755490652438,-1.701603e-04,1.819927e-04,-4.343338e-05,-1.281248e-06,-1.348242e-05,-3.467955e-05
1418755490777420,1418755490714928,1.181698e-04,1.689290e-05,2.259154e-04,4.883454e-05,4.809356e-05,1.337434e-05
1418755490839911,1418755490777420,9.783971e-05,7.121786e-05,7.282657e-05,3.397508e-06,1.498166e-05,-8.794499e-06
1418755490902403,1418755490839911,-3.620330e-04,-7.588415e-05,-2.522433e-04,-8.122865e-06,-3.021545e-05,1.381900e-05
1418755490964895,1418755490902403,2.293821e-05,5.237842e-05,-8.537948e-06,-3.439368e-06,-2.541229e-06,-5.443287e-06
1418755491027386,1418755490964895,-3.922843e-04,-1.630894e-04,-1.200405e-04,-2.115781e-05,-1.579109e-05,1.873522e-05
1418755491089877,1418755491027386,3.469484e-05,1.001820e-05,-1.688070e-06,-2.636027e-05,-1.359113e-06,6.693016e-06
1418755491152369,1418755491089877,3.661357e-06,-2.109744e-05,3.154975e-07,-1.092956e-05,-4.628878e-06,-5.725173e-06
1418755491214860,1418755491152369,-8.159681e-05,-3.533759e-05,2.934992e-05,-4.378969e-05,1.815046e-05,2.917280e-06
1418755491277352,1418755491214860,5.979690e-04,5.870581e-05,1.120257e-04,-1.382205e-05,2.221413e-05,-1.691503e-05
1418755491339843,1418755491277352,2.890159e-05,-1.246609e-04,8.040172e-05,8.399933e-05,1.825921e-05,7.345595e-06
1418755491402334,1418755491339843,-1.058484e-04,-2.581507e-05,7.213859e-05,-2.543890e-05,7.945079e-07,-1.518036e-05
1418755491464826,1418755491402334,5.329636e-05,-2.639820e-05,4.042357e-05,1.717242e-05,1.967558e-05,1.451300e-05
1418755491527318,1418755491464826,2.628797e-04,8.171964e-05,-9.243033e-06,-2.247337e-05,-5.515713e-05,-9.087625e-06
1418755491589809,1418755491527318,1.727075e-04,7.590137e-05,7.857242e-05,2.503453e-05,2.703735e-05,1.872889e-06
1418755491652300,1418755491589809,1.538021e-04,2.214285e-05,-1.687630e-05,-9.548507e-05,-3.173926e-06,-2.515537e-06
1418755491714792,1418755491652300,-2.668202e-04,2.686815e-06,-8.652410e-05,-4.096568e-05,-1.407348e-05,-4.922344e-06
1418755491777283,1418755491714792,-4.727506e-04,2.519105e-04,-2.177818e-04,-2.263420e-05,-1.765306e-05,-1.473394e-05
1418755491839775,1418755491777283,9.715056e-05,2.594434e-05,4.048871e-05,-1.655606e-05,-1.798829e-05,9.344538e-07
1418755491902267,1418755491839775,5.915024e-05,-3.974691e-05,-2.598064e-06,7.003679e-05,1.875570e-05,1.594554e-05
1418755491964758,1418755491902267,-9.413590e-05,4.581785e-05,-8.845545e-05,-9.792749e-06,1.209602e-05,1.400840e-05
1418755492027249,1418755491964758,4.881807e-05,3.238519e-05,-1.027340e-04,-1.091141e-04,-3.881536e-05,4.266823e-06
1418755492089741,1418755492027249,3.132317e-05,-1.999000e-05,2.862009e-05,-1.120239e-05,-2.716580e-06,1.263557e-05
1418755492152232,1418755492089741,3.521172e-04,3.300273e-04,2.101712e-04,-6.150996e-05,-2.129967e-06,-4.550032e-05
1418755492214723,1418755492152232,4.456229e-04,7.331710e-04,1.039764e-04,-1.071809e-04,7.481311e-06,-4.247782e-05
1418755492277216,1418755492214723,1.549919e-04,-3.930401e-04,5.504944e-05,-8.240183e-06,-7.754480e-06,3.801647e-05
1418755492339707,1418755492277216,6.660963e-04,2.416854e-04,3.861080e-04,-2.142018e-05,5.058368e-05,-2.221397e-05
1418755492402199,1418755492339707,-5.636242e-06,1.605143e-05,2.884651e-05,-4.021849e-05,-6.129898e-07,8.833835e-06
1418755492464690,1418755492402199,3.469154e-04,1.265101e-05,8.580746e-06,1.105163e-05,-4.028219e-05,1.896210e-05
1418755492527193,1418755492464690,1.052998e-04,-1.499643e-04,-2.279794e-05,-2.527884e-05,-1.077730e-06,6.814712e-07
1418755492589673,1418755492527193,2.401191e-04,-6.315575e-05,2.057559e-05,-2.885368e-05,-2.705275e-05,1.412934e-05
1418755492652164,1418755492589673,1.553006e-04,2.042836e-05,7.253408e-05,-4.082743e-05,-1.119663e-05,-1.368678e-05
1418755492714656,1418755492652164,1.576193e-04,7.416039e-05,5.631754e-05,5.669249e-05,1.606584e-06,3.638880e-06
1418755492777147,1418755492714656,7.919501e-05,-2.581411e-06,4.810023e-05,3.045141e-05,1.830212e-05,1.909304e-06
1418755492839638,1418755492777147,-1.342823e-05,-2.396061e-05,5.089887e-05,-1.366606e-05,-1.638826e-06,-4.271506e-06
1418755492902130,1418755492839638,-1.279411e-04,-2.093903e-04,1.311688e-05,-3.013186e-05,-2.980774e-05,8.478613e-06
1418755492964621,1418755492902130,3.435043e-05,4.929650e-05,1.970875e-05,4.505921e-05,1.982344e-05,-1.042842e-06
1418755493027113,1418755492964621,2.544858e-05,-3.206190e-05,-4.032238e-05,-7.778205e-05,-1.268108e-06,-1.603674e-06
1418755493089604,1418755493027113,-3.065988e-05,4.391301e-05,1.520588e-05,6.004335e-06,-1.651126e-06,1.023311e-05
1418755493152094,1418755493089604,3.904572e-05,-3.046142e-06,-2.869088e-05,8.671680e-05,-2.893679e-07,-2.754473e-05
1418755493214587,1418755493152094,2.784099e-05,1.189907e-04,9.267961e-05,5.126265e-05,3.204918e-05,-1.953944e-05
1418755493277079,1418755493214587,-1.467827e-04,-2.138237e-06,-2.206008e-05,-1.887861e-05,5.325838e-06,-1.156899e-05
1418755493339570,1418755493277079,3.639062e-04,-4.787019e-05,4.767938e-05,-2.024839e-05,3.962427e-06,1.802524e-06
1418755493402061,1418755493339570,1.238517e-04,2.299067e-05,5.887092e-05,1.979673e-05,2.243134e-05,-4.768338e-06
1418755493464553,1418755493402061,-1.354357e-05,1.006986e-04,1.383992e-05,1.054888e-04,-2.206571e-05,-6.672124e-06
1418755493527045,1418755493464553,-1.401744e-04,-1.305009e-05,-1.888949e-05,-1.029232e-04,1.486587e-05,-5.159166e-06
1418755493589536,1418755493527045,-1.435206e-04,1.517481e-05,-1.772955e-05,6.038221e-05,-1.516438e-05,6.411149e-06
1418755493652026,1418755493589536,1.774553e-04,-3.036791e-05,3.561514e-05,-3.593674e-05,-1.540505e-05,1.286365e-05
1418755493714519,1418755493652026,4.404335e-05,1.742333e-04,-6.263918e-05,6.335932e-05,-1.658784e-05,4.259056e-06
1418755493777010,1418755493714519,3.292996e-04,-2.141426e-04,8.502883e-05,-6.379782e-05,-1.269490e-05,2.565523e-05
1418755493839502,1418755493777010,-3.691534e-04,-1.094577e-04,1.390233e-05,4.567590e-05,3.331733e-05,7.124551e-06
1418755493901993,1418755493839502,4.898759e-05,-3.235047e-05,-5.874926e-05,5.580603e-06,-4.262987e-07,1.885407e-06
1418755493964485,1418755493901993,1.422152e-04,1.414077e-04,-3.687489e-05,-1.917140e-05,-3.010982e-05,-2.745167e-05
1418755494026976,1418755493964485,-3.829649e-04,1.298862e-04,-1.525471e-05,2.447669e-05,2.890733e-05,-1.727815e-06
1418755494089468,1418755494026976,6.390441e-05,-4.846208e-05,1.257176e-05,-1.820743e-05,-6.798805e-07,-2.531671e-05
1418755494151959,1418755494089468,3.175949e-04,-1.486024e-04,1.385865e-04,-3.511409e-05,3.948271e-07,9.072544e-06
1418755494214451,1418755494151959,6.440837e-05,-3.462929e-04,3.115130e-05,2.557724e-05,3.399745e-05,4.866141e-05
1418755494276943,1418755494214451,1.252948e-04,1.555600e-04,2.565954e-05,3.458482e-05,1.128853e-05,-1.514224e-05
1418755494339434,1418755494276943,4.703292e-04,-2.616470e-04,5.854647e-05,-2.820399e-05,-1.301745e-05,1.853847e-05
1418755494401925,1418755494339434,1.903678e-04,7.317342e-05,1.198088e-04,-5.988464e-05,-3.138067e-06,1.164389e-05
1418755494464416,1418755494401925,1.894383e-04,-1.047357e-04,7.164285e-05,1.063016e-06,1.896517e-07,1.246695e-05
1418755494526908,1418755494464416,1.824256e-04,7.836864e-05,-9.107296e-07,-3.746173e-05,-1.221370e-05,4.356784e-06
1418755494589400,1418755494526908,1.032091e-04,5.065036e-05,5.423869e-05,4.676498e-05,6.202209e-06,-1.058043e-05
1418755494651891,1418755494589400,4.877352e-05,-2.159026e-05,-1.047164e-04,6.607627e-06,-1.924009e-05,4.550992e-05
1418755494714383,1418755494651891,-1.734911e-04,7.521738e-05,-6.636891e-05,6.569196e-06,-1.428911e-05,-5.148589e-06
1418755494776872,1418755494714383,-1.703098e-04,-4.231758e-05,-3.911279e-05,2.663534e-05,1.693473e-05,1.248192e-05
1418755494839366,1418755494776872,-1.643839e-04,5.582391e-05,-8.078465e-05,-1.318140e-05,-3.073777e-05,5.286926e-07
1418755494901857,1418755494839366,1.560683e-04,3.444081e-05,5.083638e-05,6.762622e-05,-1.295275e-05,-2.076963e-05
1418755494964348,1418755494901857,9.605528e-05,-2.178816e-05,4.840515e-06,-7.033563e-06,8.660461e-06,-9.895392e-07
1418755495026839,1418755494964348,2.482111e-04,1.554615e-04,1.166085e-04,-1.948873e-05,-1.238246e-05,-8.097851e-06
1418755495089331,1418755495026839,3.962605e-04,-5.600972e-04,1.588447e-04,-1.732937e-06,1.111561e-05,5.324256e-05
1418755495151822,1418755495089331,7.166137e-05,-1.638958e-05,4.152711e-05,-1.731649e-05,2.071588e-05,-9.526039e-06
1418755495214314,1418755495151822,1.114001e-04,5.869460e-05,9.648259e-05,-5.963360e-06,5.265696e-06,6.720018e-06
1418755495276806,1418755495214314,-2.463068e-05,-2.663730e-05,1.830482e-05,-1.292447e-05,1.492513e-05,-1.499501e-05
1418755495339297,1418755495276806,1.235231e-04,7.756971e-04,-1.527344e-03,-5.281570e-05,-1.554537e-04,-7.610291e-05
1418755495401789,1418755495339297,-8.040759e-05,-3.375457e-05,2.564493e-05,1.199983e-05,1.471302e-06,9.873307e-06
1418755495464280,1418755495401789,1.334449e-05,-3.461695e-05,-2.610039e-05,-3.670274e-05,-1.722588e-05,6.028437e-06
1418755495526771,1418755495464280,5.433821e-05,-6.094717e-05,4.430097e-05,3.947797e-05,9.244132e-06,3.431650e-05
1418755495589263,1418755495526771,1.888304e-04,8.851545e-05,8.375717e-05,-3.851758e-06,1.169089e-05,-1.200907e-05
1418755495651754,1418755495589263,6.918143e-04,-1.668201e-04,2.561153e-04,-9.720183e-05,1.235334e-05,2.810283e-05
1418755495714246,1418755495651754,7.299512e-05,-1.550818e-04,-1.124770e-05,-3.169645e-05,-2.959920e-05,2.380924e-05
1418755495776738,1418755495714246,3.940687e-04,-7.996492e-04,1.156325e-05,-1.515814e-06,-1.158898e-05,6.125833e-05
1418755495839229,1418755495776738,-1.370641e-04,4.601056e-05,-1.025084e-04,1.032568e-05,-5.213388e-06,-1.580846e-05
1418755495901721,1418755495839229,-5.621412e-04,5.525415e-05,-2.186448e-04,1.863661e-05,8.210282e-07,-6.872253e-06
1418755495964212,1418755495901721,2.856313e-04,2.165324e-05,1.252672e-04,-5.539410e-07,7.886996e-06,-5.783901e-06
1418755496026703,1418755495964212,-2.499343e-04,1.239479e-04,-1.293824e-04,-1.764699e-05,-1.721101e-05,-1.962434e-05
1418755496089195,1418755496026703,-2.380988e-04,-8.876549e-05,-4.150478e-05,7.145032e-05,5.208336e-06,1.478691e-05
1418755496151687,1418755496089195,8.510388e-05,1.711363e-05,-4.978997e-05,-3.068017e-05,-2.317604e-05,1.314048e-05
1418755496214178,1418755496151687,-1.831592e-04,-8.617563e-05,-7.114011e-05,-2.354999e-05,-8.656797e-06,2.061806e-05
1418755496276669,1418755496214178,2.379242e-04,-8.923535e-05,2.656544e-05,1.610777e-05,-4.745443e-06,2.390451e-05
1418755496339161,1418755496276669,-7.472315e-04,3.743914e-05,-4.499556e-04,-3.884731e-05,-5.384360e-05,-4.919057e-06
1418755496401652,1418755496339161,7.225977e-04,-2.644829e-04,1.612420e-05,-5.524724e-05,-8.868980e-06,3.392943e-05
1418755496464144,1418755496401652,-6.025758e-05,-9.684230e-07,-8.438527e-05,2.984382e-05,-1.600032e-05,1.402653e-05
1418755496526635,1418755496464144,1.190762e-04,-3.008100e-06,8.410894e-05,8.069482e-06,1.964053e-05,-3.195328e-06
1418755496589127,1418755496526635,-4.178949e-06,9.137753e-05,6.549392e-05,8.653164e-06,1.017174e-05,-1.532420e-05
1418755496651618,1418755496589127,1.944918e-04,-1.179229e-04,4.584572e-05,-1.122860e-05,1.298292e-05,2.261744e-05
1418755496714109,1418755496651618,-1.090847e-06,3.975440e-05,6.617729e-06,-3.042160e-06,1.094372e-06,-2.674503e-07
1418755496776600,1418755496714109,7.652271e-05,2.138935e-05,1.814799e-04,4.571052e-05,4.135182e-05,4.749410e-06
1418755496839092,1418755496776600,-4.859260e-05,-9.523391e-05,5.870085e-05,-8.762346e-06,3.578681e-05,1.793627e-05
1418755496901584,1418755496839092,-6.544225e-05,6.486199e-05,4.567503e-05,1.140870e-05,-1.422606e-05,-1.543692e-05
1418755496964076,1418755496901584,3.302859e-04,1.129087e-04,9.273905e-05,1.813508e-05,-9.431756e-07,-2.863320e-06
1418755497026566,1418755496964076,-1.064698e-04,1.615763e-05,-9.059862e-05,-4.499778e-05,-4.693336e-06,-9.444486e-06
1418755497089059,1418755497026566,3.042470e-04,2.261900e-05,1.742561e-04,-1.140133e-05,-3.303432e-06,-7.484737e-06
1418755497151550,1418755497089059,4.239902e-04,1.317770e-04,3.332853e-05,1.491207e-05,3.907298e-07,-2.086686e-05
1418755497214042,1418755497151550,-5.304484e-04,-2.037855e-04,-1.079926e-04,-1.099519e-05,1.237645e-05,4.908188e-06
1418755497276533,1418755497214042,-2.912878e-04,-2.044428e-04,-1.513865e-04,2.953757e-05,-1.086020e-05,3.351040e-05
1418755497339022,1418755497276533,1.495556e-05,2.320306e-04,6.118961e-05,3.595285e-05,1.093285e-05,-3.201923e-05
1418755497401515,1418755497339022,-1.916784e-04,1.003428e-04,7.933435e-05,5.992932e-05,3.898942e-05,9.296214e-06
1418755497464007,1418755497401515,-4.798160e-05,1.980138e-04,-1.975982e-05,6.594191e-05,1.959616e-05,-1.793269e-05
1418755497526498,1418755497464007,8.534672e-05,1.415241e-06,7.129615e-06,-3.121730e-05,1.220996e-05,-1.389014e-05
1418755497588990,1418755497526498,1.971775e-04,6.621345e-05,1.012748e-04,8.165897e-05,1.240184e-05,-1.703645e-06
1418755497651482,1418755497588990,8.106947e-06,-6.454867e-08,1.029722e-04,5.698390e-06,1.105922e-05,1.008542e-05
1418755497713973,1418755497651482,-3.968694e-04,6.392397e-05,-6.597500e-06,-7.143379e-05,-4.731035e-06,8.939159e-06
1418755497776464,1418755497713973,4.420435e-06,9.281552e-05,1.738580e-05,4.493864e-05,1.184315e-05,-1.006992e-05
1418755497838956,1418755497776464,-2.824819e-04,-7.351181e-05,-7.010759e-05,-2.067933e-05,-6.086855e-06,-1.546440e-06
1418755497901448,1418755497838956,-1.378544e-04,-8.654208e-05,-1.390121e-05,-1.988120e-05,5.007596e-06,3.549951e-05
1418755497963937,1418755497901448,1.919961e-04,-1.171845e-04,7.117898e-05,-2.849002e-05,-5.198846e-06,3.159818e-06
1418755498026430,1418755497963937,-3.325872e-04,8.754475e-05,-8.399668e-05,1.038511e-04,2.086560e-05,-8.082932e-06
1418755498088921,1418755498026430,-9.497721e-05,6.959939e-05,-3.685946e-05,3.580023e-05,1.189485e-05,-8.575977e-06
1418755498151413,1418755498088921,-2.171432e-04,-1.149646e-05,-7.492413e-05,4.178232e-05,-1.193958e-05,9.487000e-06
1418755498213905,1418755498151413,1.630683e-04,2.250366e-05,1.129003e-04,-1.820243e-05,1.016508e-05,5.236651e-06
1418755498276396,1418755498213905,-4.127678e-04,-9.411625e-05,-1.673538e-04,1.342842e-06,-3.413452e-05,5.727746e-06
1418755498338888,1418755498276396,1.970112e-04,6.953547e-06,1.623844e-04,-5.713828e-06,3.002930e-05,-4.018085e-06
1418755498401379,1418755498338888,-1.399832e-04,3.687383e-05,-7.142048e-05,2.145749e-05,-1.087361e-05,-2.961134e-06
1418755498463871,1418755498401379,-9.045601e-05,6.152518e-05,-6.556474e-05,3.915843e-05,6.924549e-06,-2.742866e-05
1418755498526362,1418755498463871,9.445389e-06,1.793005e-05,4.485740e-05,-2.112693e-05,1.312115e-05,-4.687035e-07
1418755498588853,1418755498526362,1.630205e-04,6.132539e-05,1.163874e-05,6.622487e-05,2.183737e-06,1.878085e-05
1418755498651343,1418755498588853,5.403034e-05,3.437322e-05,6.855587e-05,-2.179957e-05,2.969375e-05,-4.441638e-06
1418755498713836,1418755498651343,1.820203e-04,1.353053e-04,-3.619534e-05,8.786189e-06,-1.436790e-05,-1.399310e-05
1418755498776326,1418755498713836,-1.342554e-04,-3.370215e-05,-3.071759e-05,1.342566e-04,-1.357312e-05,1.275984e-05
1418755498838819,1418755498776326,3.337847e-04,-5.923636e-04,-4.197300e-04,-1.126727e-04,-5.245735e-05,3.201821e-05
1418755498901311,1418755498838819,-9.042796e-05,2.136035e-04,-6.988391e-05,-5.166131e-05,-2.302584e-05,-6.557155e-06
1418755498963802,1418755498901311,-2.454261e-04,-9.781462e-06,-1.128185e-04,6.720654e-05,-1.903909e-05,-5.745984e-06
1418755499026294,1418755498963802,1.655833e-04,1.041286e-04,-3.376179e-05,-2.771984e-05,-4.088314e-05,-1.313139e-05
1418755499088785,1418755499026294,-1.948610e-04,-8.717737e-05,-1.521227e-04,-8.853751e-05,-4.225219e-05,6.206483e-06
1418755499151276,1418755499088785,-1.671987e-04,1.551924e-04,-4.019721e-05,9.504027e-05,-7.111955e-06,-1.248805e-05
1418755499213768,1418755499151276,-1.065444e-05,5.585135e-07,-2.120216e-05,-5.302654e-06,1.424724e-05,-1.607298e-05
1418755499276259,1418755499213768,1.050606e-04,-1.349600e-05,-9.596796e-06,-6.614252e-05,-7.429694e-06,-7.240156e-06
1418755499338751,1418755499276259,-1.412902e-04,1.986018e-05,-6.348887e-05,-3.919120e-05,-1.638763e-05,1.198629e-05
1418755499401243,1418755499338751,4.034997e-04,1.098030e-04,7.391860e-05,5.430604e-05,-2.917141e-05,-8.287630e-06
1418755499463734,1418755499401243,6.802596e-05,2.683788e-05,-2.477727e-05,-6.622903e-05,-2.764348e-05,-1.056889e-05
1418755499526226,1418755499463734,1.781336e-04,-5.407732e-05,-2.423492e-06,-6.733488e-05,-2.127290e-05,7.973769e-06
1418755499588717,1418755499526226,-5.503661e-05,-1.562331e-05,-5.583289e-05,2.428102e-05,2.073555e-05,-6.074899e-06
1418755499651209,1418755499588717,1.554190e-04,-8.072644e-05,7.189948e-06,-1.791115e-05,-4.156916e-06,9.647419e-06
1418755499713699,1418755499651209,2.469084e-04,-7.395982e-06,5.548393e-05,5.345195e-05,-5.120220e-06,4.204705e-06
1418755499776192,1418755499713699,1.799903e-04,-4.397127e-05,9.660976e-05,9.452876e-06,-1.654232e-06,3.860376e-05
1418755499838682,1418755499776192,4.066170e-04,-1.066096e-04,-1.443302e-04,8.666577e-06,-2.940252e-05,2.796453e-05
1418755499901174,1418755499838682,1.633697e-05,8.059712e-05,1.064406e-04,7.438375e-05,2.384333e-05,-1.841416e-05
1418755499963665,1418755499901174,5.650905e-04,1.133023e-04,2.565788e-04,-3.136617e-05,-6.563132e-08,-3.340898e-05
1418755500026157,1418755499963665,3.981180e-06,-2.600783e-05,-4.537059e-05,-4.454712e-05,1.268136e-05,8.076490e-06
1418755500088648,1418755500026157,3.172724e-04,1.039988e-05,1.365757e-05,-3.019359e-05,-1.600211e-05,7.068447e-06
1418755500151140,1418755500088648,1.327673e-04,4.000117e-05,-6.386366e-07,6.356279e-05,3.265666e-07,1.136101e-05
1418755500213631,1418755500151140,-1.152236e-04,-2.342386e-05,-8.789664e-05,2.323179e-05,-2.010700e-05,-5.305483e-06
1418755500276123,1418755500213631,2.672449e-04,8.613732e-05,1.608059e-05,-5.441840e-06,9.281825e-06,-1.872623e-05
1418755500338614,1418755500276123,6.916209e-05,2.723232e-05,-5.010736e-06,-6.353403e-05,-1.956620e-05,-1.918862e-05
1418755500401106,1418755500338614,5.231842e-05,7.163807e-06,-8.711731e-06,-1.219117e-05,8.307855e-06,-8.980450e-06
1418755500463597,1418755500401106,-1.248573e-04,2.466980e-06,-3.019380e-05,-1.870555e-05,9.683802e-06,1.379304e-06
1418755500526089,1418755500463597,2.114270e-05,1.298627e-04,4.026919e-06,7.078671e-05,5.349914e-06,-2.297953e-05
1418755500588580,1418755500526089,-3.782532e-04,-1.484086e-04,-9.192685e-05,1.702891e-07,-8.569011e-06,1.941102e-05
1418755500651072,1418755500588580,4.025953e-04,-1.090270e-04,2.869947e-04,-3.780447e-05,4.166056e-05,4.268918e-05
1418755500713563,1418755500651072,-6.643257e-04,1.947351e-04,-1.382128e-04,7.488797e-05,-9.078439e-08,-3.116829e-05
1418755500776055,1418755500713563,-1.150653e-05,-1.982658e-04,-2.039144e-04,2.741642e-05,-4.305225e-06,3.007713e-05
1418755500838546,1418755500776055,-8.938466e-05,9.615729e-06,-6.336273e-05,-9.994566e-05,-1.962427e-05,-2.042170e-05
1418755500901038,1418755500838546,-5.976192e-04,-2.217699e-04,-4.018280e-04,1.383557e-05,-6.840414e-05,2.020539e-06
1418755500963529,1418755500901038,-4.200384e-05,9.888484e-05,-1.583351e-05,2.527479e-05,-9.474255e-07,-2.742302e-05
1418755501026021,1418755500963529,-4.415512e-05,-5.201213e-05,8.898490e-05,4.240057e-05,5.930306e-05,1.608439e-05
1418755501088512,1418755501026021,-1.565678e-04,-1.236531e-05,-9.259840e-05,5.782816e-05,-7.638464e-06,8.680298e-07
1418755501151003,1418755501088512,-9.580028e-04,3.635594e-05,-3.724496e-04,6.961333e-05,-2.935688e-05,2.406800e-06
1418755501213495,1418755501151003,3.266307e-04,1.380387e-04,1.169942e-04,-5.143013e-05,6.518563e-06,-3.564072e-06
1418755501275986,1418755501213495,-6.194557e-05,1.722951e-05,1.680307e-05,-6.051390e-05,-2.181877e-06,-1.765775e-06
1418755501338478,1418755501275986,-3.035696e-04,-2.153451e-04,-1.200591e-04,-3.584871e-05,-3.037279e-05,1.988599e-05
1418755501400968,1418755501338478,-2.332302e-04,-6.708196e-05,-8.791083e-05,-1.555602e-05,-1.553328e-05,5.885455e-06
1418755501463461,1418755501400968,1.618274e-04,-1.611713e-05,1.847881e-05,3.136288e-05,-1.545958e-05,-1.021164e-05
1418755501525952,1418755501463461,4.773066e-04,-2.651379e-04,2.315262e-04,-8.329844e-05,2.444792e-05,4.002944e-05
1418755501588444,1418755501525952,4.533138e-05,-6.136619e-05,-1.428655e-05,2.962571e-05,-3.382381e-06,-1.614450e-06
1418755501650935,1418755501588444,-1.640745e-04,1.042178e-04,-9.516908e-05,-2.175909e-05,-2.053709e-05,-8.784101e-06
1418755501713426,1418755501650935,6.694429e-05,8.428605e-05,1.103067e-04,8.029840e-05,5.020683e-05,-1.617261e-05
1418755501775918,1418755501713426,5.869131e-04,8.714601e-05,1.558176e-04,-1.671606e-05,-1.430593e-05,-2.162019e-05
1418755501838410,1418755501775918,-5.689571e-05,-8.547936e-05,4.817742e-05,-9.360304e-05,-3.417689e-06,1.649755e-05
1418755501900901,1418755501838410,2.409055e-04,8.799248e-06,1.455669e-04,6.332325e-05,2.100631e-05,-2.265529e-06
1418755501963392,1418755501900901,-5.508594e-05,2.286264e-04,-6.985277e-05,8.105930e-05,-3.681303e-05,-2.554977e-05
1418755502025884,1418755501963392,8.586493e-05,-4.702425e-05,1.399750e-06,-7.216365e-05,-2.600757e-05,1.731677e-05
1418755502088375,1418755502025884,1.309723e-04,5.028840e-05,3.557687e-05,9.819056e-05,1.440833e-05,3.400344e-06
1418755502150867,1418755502088375,-1.079777e-04,-6.148247e-05,1.984659e-05,-2.414944e-05,4.889060e-06,1.229687e-06
1418755502213359,1418755502150867,-1.478254e-04,2.153868e-05,-3.760096e-05,-1.175709e-04,-2.327852e-05,2.307414e-06
1418755502275850,1418755502213359,-7.312342e-04,-7.746573e-05,-2.487767e-04,1.425978e-05,-7.975483e-06,1.497596e-05
1418755502338342,1418755502275850,2.543493e-04,4.171694e-05,4.408997e-05,4.454757e-05,-2.490033e-06,1.064167e-06
1418755502400833,1418755502338342,7.935435e-05,2.299089e-05,-6.894296e-06,1.058404e-05,3.818804e-06,-3.893009e-06
1418755502463323,1418755502400833,5.013754e-04,-3.908696e-04,2.539075e-04,3.799610e-05,-3.044366e-06,2.623424e-05
1418755502525816,1418755502463323,1.789326e-04,5.369532e-05,9.795320e-05,-5.437027e-05,7.171658e-06,7.481685e-06
1418755502588307,1418755502525816,1.822316e-05,-7.709574e-05,-4.809487e-05,4.114407e-05,4.067710e-07,2.675385e-05
1418755502650798,1418755502588307,-2.726593e-05,-8.666414e-05,6.166273e-05,1.860858e-05,1.909052e-05,-1.099375e-05
1418755502713290,1418755502650798,-1.444766e-04,-2.464724e-05,-6.080345e-05,-1.282126e-05,6.337462e-06,1.684337e-05
1418755502775782,1418755502713290,3.455103e-04,-1.437830e-04,9.152505e-05,1.813646e-05,5.556616e-06,3.363279e-05
1418755502838273,1418755502775782,-1.251680e-04,5.724633e-05,4.423487e-05,-1.422729e-05,2.442296e-05,5.708084e-06
1418755502900765,1418755502838273,8.511237e-05,6.453119e-05,2.499494e-05,-4.070743e-05,-9.242801e-06,5.326221e-06
1418755502963256,1418755502900765,3.196447e-05,2.612982e-05,-2.267922e-05,-1.048431e-05,2.600997e-05,1.086909e-06
1418755503025747,1418755502963256,2.080580e-04,2.825920e-05,7.016251e-05,-3.717732e-05,-6.259156e-06,5.016696e-06
1418755503088239,1418755503025747,2.030079e-04,-4.381959e-05,7.188107e-05,-1.521683e-05,3.938738e-06,8.298353e-06
1418755503150729,1418755503088239,-1.122451e-04,-1.738574e-05,-3.325770e-05,2.369990e-06,-6.996625e-06,-1.379717e-06
1418755503213222,1418755503150729,-6.141671e-04,-3.950889e-04,-3.150062e-05,-4.330242e-05,-1.168842e-05,-2.006881e-06
1418755503275713,1418755503213222,-1.701319e-04,-4.779161e-05,-3.111548e-05,1.643547e-05,2.666078e-05,3.049162e-06
1418755503338204,1418755503275713,-4.334821e-05,-2.600887e-05,-1.047486e-04,5.930544e-05,-2.044120e-05,9.391403e-06
1418755503400697,1418755503338204,-2.003265e-04,-2.083997e-05,-5.559427e-05,-1.895289e-05,-4.091170e-06,-8.010586e-06
1418755503463188,1418755503400697,-2.436506e-05,-3.707149e-05,-2.163229e-05,2.349447e-06,-1.918797e-05,-8.898077e-06
1418755503525679,1418755503463188,-4.181526e-05,-1.338095e-05,-4.458895e-05,8.861515e-06,-2.874088e-05,-1.303542e-06
1418755503588171,1418755503525679,1.197462e-04,1.349707e-04,1.148942e-04,1.181827e-05,2.314499e-05,3.560853e-06
1418755503650662,1418755503588171,-1.270091e-05,7.158167e-06,5.963080e-05,-4.199684e-05,1.473793e-06,8.146224e-06
1418755503713154,1418755503650662,3.009934e-04,6.313379e-05,2.567620e-05,-6.313290e-05,-1.951805e-05,-4.479168e-06
1418755503775645,1418755503713154,-1.214960e-05,-1.325441e-04,-1.365833e-05,-2.981810e-05,1.199950e-05,-1.288519e-05
1418755503838136,1418755503775645,3.536167e-05,4.144106e-05,2.554434e-05,5.063608e-05,1.034393e-05,2.820744e-06
1418755503900628,1418755503838136,1.596459e-06,9.181173e-06,-4.036055e-05,-2.984650e-05,-6.532915e-06,-2.328364e-06
1418755503963119,1418755503900628,7.602109e-05,7.556998e-06,3.168515e-05,6.343905e-05,8.309880e-06,1.060600e-05
1418755504025611,1418755503963119,-1.882709e-04,8.810700e-05,-1.167823e-04,2.449186e-05,-2.655553e-05,-2.512152e-05
1418755504088102,1418755504025611,-1.501828e-05,-2.935393e-05,8.009070e-06,1.851599e-05,1.369037e-05,1.426887e-05
1418755504150594,1418755504088102,3.195521e-04,3.064454e-05,2.295500e-04,-2.222167e-05,3.246560e-06,1.256817e-05
1418755504213085,1418755504150594,-1.014888e-03,3.769647e-04,-3.714963e-04,1.433441e-05,-6.527430e-05,-3.592302e-05
1418755504275577,1418755504213085,1.047277e-04,3.053158e-05,1.072602e-04,-1.089379e-05,4.466367e-06,-4.949022e-06
1418755504338068,1418755504275577,-1.553289e-05,1.015416e-05,-7.937541e-06,-5.411795e-06,-7.620390e-06,-3.260136e-05
1418755504400560,1418755504338068,2.132745e-04,3.290329e-05,2.977075e-05,-2.455560e-05,-2.125320e-05,1.772910e-05
1418755504463052,1418755504400560,1.281627e-06,-2.509058e-05,1.848552e-05,-7.545718e-07,-7.104620e-06,3.390522e-06
1418755504525543,1418755504463052,2.468175e-04,-8.805827e-04,1.638814e-04,-1.830357e-05,1.887332e-05,5.266259e-05
1418755504588035,1418755504525543,-1.359843e-04,8.293418e-06,-5.835057e-05,1.041257e-05,-2.910491e-06,-1.013302e-05
1418755504650524,1418755504588035,-4.602496e-04,1.153892e-04,-3.164986e-04,3.981787e-05,-3.733186e-05,-1.676715e-05
1418755504713018,1418755504650524,3.449180e-04,-1.153927e-04,1.746655e-04,2.223220e-05,2.305419e-05,1.219959e-05
1418755504775509,1418755504713018,5.082178e-04,2.575419e-05,3.026067e-04,3.053963e-05,4.739394e-05,1.170786e-05
1418755504838000,1418755504775509,-1.818713e-04,3.400477e-04,-8.517652e-05,1.937129e-05,-2.620510e-06,-4.076736e-05
1418755504900492,1418755504838000,4.535732e-05,4.340588e-05,9.026220e-06,-4.323266e-06,2.673676e-05,1.908747e-05
1418755504962983,1418755504900492,2.709690e-05,3.678327e-05,2.076181e-05,1.586477e-05,-3.327631e-06,-1.783870e-05
1418755505025474,1418755504962983,1.777669e-06,6.795892e-06,-1.129762e-05,3.070225e-05,8.417582e-06,-3.008097e-06
1418755505087966,1418755505025474,4.053575e-04,-4.495806e-05,1.873753e-04,2.175139e-05,3.561426e-05,-1.547794e-05
1418755505150458,1418755505087966,-4.990981e-04,-1.126079e-05,-1.532314e-04,3.454900e-05,-4.913892e-06,-2.394884e-06
1418755505212949,1418755505150458,1.694007e-04,3.290980e-05,1.020209e-04,7.336337e-05,8.869113e-06,7.851540e-06
1418755505275440,1418755505212949,-1.746170e-05,2.050706e-05,2.264503e-05,-1.582642e-05,1.241731e-05,-5.094412e-06
1418755505337932,1418755505275440,-6.736892e-04,-2.350331e-04,-2.301530e-04,-9.747665e-05,-5.097743e-05,1.924970e-05
1418755505400424,1418755505337932,6.110773e-04,-2.538015e-04,2.865268e-04,6.974154e-05,2.002821e-05,2.744280e-05
1418755505462915,1418755505400424,-3.554024e-04,1.851490e-04,-1.531316e-04,5.455887e-05,-1.885797e-05,-1.944913e-05
1418755505525404,1418755505462915,-2.100094e-04,-7.314751e-06,-1.082903e-04,3.935185e-05,2.326375e-05,-1.051938e-06
1418755505587897,1418755505525404,-1.147105e-04,3.564890e-06,-6.065894e-05,-1.443506e-05,-3.384708e-06,5.556024e-06
1418755505650387,1418755505587897,9.063474e-05,-4.467553e-05,2.416942e-05,-9.916509e-06,3.951051e-06,1.255550e-05
1418755505712880,1418755505650387,-1.115806e-05,1.076529e-04,2.005941e-05,6.677718e-06,2.655691e-05,-1.192615e-05
1418755505775372,1418755505712880,-2.467540e-04,-1.761350e-05,-9.716152e-05,-1.931500e-06,-2.458108e-05,1.576274e-05
1418755505837864,1418755505775372,5.065727e-04,2.981575e-05,2.070954e-04,-1.340297e-05,8.274709e-06,-9.112148e-06
1418755505900355,1418755505837864,9.286490e-05,-3.708268e-05,-7.174654e-05,-9.436186e-05,-3.172455e-05,4.473375e-06
1418755505962845,1418755505900355,3.687334e-05,6.950307e-05,1.161058e-04,2.552407e-05,9.391495e-06,-8.874802e-06
1418755506025338,1418755505962845,-4.003670e-04,-4.881996e-04,-1.598548e-04,-4.241098e-05,-3.213323e-05,5.031653e-05
1418755506087829,1418755506025338,-1.839419e-04,7.997433e-05,-1.939909e-04,-6.669706e-05,-3.610889e-05,-1.064396e-05
1418755506150321,1418755506087829,7.209281e-05,4.769491e-05,7.227529e-05,5.651355e-05,1.872313e-05,-1.960009e-05
1418755506212812,1418755506150321,-2.987003e-04,-1.024750e-04,-1.426175e-04,-2.171265e-05,-3.235447e-05,1.213149e-05
1418755506275304,1418755506212812,-5.065080e-05,1.277553e-04,7.994702e-05,9.165645e-05,-1.030542e-05,-8.041942e-06
1418755506337796,1418755506275304,5.458042e-05,2.219555e-05,1.298139e-05,-2.370075e-05,-5.820794e-06,-8.245891e-06
1418755506400287,1418755506337796,5.275522e-05,6.493218e-05,-1.421794e-05,-4.022550e-05,-9.567951e-06,-1.376325e-06
1418755506462777,1418755506400287,-2.758888e-04,3.294489e-05,-7.931297e-05,-4.550001e-05,1.627753e-05,1.154681e-06
1418755506525270,1418755506462777,5.842354e-04,6.470345e-05,2.357880e-04,5.151795e-05,2.802877e-05,-7.347400e-06
1418755506587761,1418755506525270,7.930876e-05,-5.540738e-05,-2.141281e-05,1.354243e-05,7.279084e-06,2.698639e-06
1418755506650253,1418755506587761,-2.555143e-04,-4.661751e-04,-6.997157e-05,6.944437e-05,-1.259787e-06,3.891309e-05
1418755506712744,1418755506650253,9.145121e-05,-1.249189e-05,-1.464236e-06,3.995295e-06,2.415548e-06,9.865545e-06
1418755506775236,1418755506712744,1.354383e-04,4.156487e-05,3.526202e-05,1.747611e-06,2.860276e-06,-5.563524e-06
1418755506837727,1418755506775236,3.472707e-05,5.273043e-06,-5.389453e-05,1.485218e-05,-3.508049e-06,-3.507044e-06
1418755506900218,1418755506837727,-2.877554e-04,1.011809e-04,2.137861e-06,-5.320610e-05,-2.114925e-06,-6.176746e-06
1418755506962710,1418755506900218,-5.857909e-05,1.905705e-05,3.700526e-06,-1.984778e-05,-4.926907e-06,-5.129397e-06
1418755507025202,1418755506962710,-1.309467e-04,8.639178e-04,-3.994382e-04,4.262375e-05,-3.335290e-05,-6.969688e-05
1418755507087692,1418755507025202,1.432957e-05,-3.800826e-06,4.648030e-05,1.363277e-05,1.936247e-06,-6.396400e-06
1418755507150185,1418755507087692,-2.266861e-04,-1.068411e-05,-8.985908e-05,-2.891268e-05,-1.450560e-05,-4.449248e-06
1418755507212676,1418755507150185,-9.631023e-05,2.483837e-05,-7.259433e-05,6.573337e-05,-9.809316e-06,-1.028352e-05
1418755507275168,1418755507212676,2.350090e-04,1.997509e-04,1.609220e-04,-5.102821e-05,2.257618e-07,-1.012535e-05
1418755507337657,1418755507275168,4.903461e-04,-2.398780e-04,2.177392e-04,-2.038639e-05,4.856850e-05,1.060190e-05
1418755507400151,1418755507337657,5.319464e-05,1.940457e-05,-5.508340e-05,2.029215e-05,1.150950e-05,-6.987362e-06
1418755507462642,1418755507400151,1.358295e-04,4.309289e-07,1.359977e-05,-1.465364e-06,-7.594660e-06,-1.031857e-05
1418755507525133,1418755507462642,-5.056984e-06,3.179175e-05,-1.395028e-05,4.709933e-06,-2.409343e-05,-4.753140e-06
1418755507587624,1418755507525133,6.137334e-05,8.509604e-04,-2.767664e-06,9.541443e-05,1.297128e-05,-7.398957e-05
1418755507650116,1418755507587624,-1.209368e-04,1.952199e-06,4.844493e-05,3.722248e-05,2.169110e-05,-1.801646e-06
1418755507712607,1418755507650116,4.518529e-05,-7.955072e-05,-9.509615e-06,-4.868729e-05,-1.876826e-05,-2.716985e-06
1418755507775099,1418755507712607,1.682119e-04,-1.157556e-03,7.550015e-05,-3.102807e-05,-1.162213e-05,9.993235e-05
1418755507837591,1418755507775099,-1.415082e-04,-8.316163e-06,-1.159117e-04,2.105432e-05,-2.312512e-06,2.306349e-05
1418755507900082,1418755507837591,-6.721149e-05,3.698603e-06,-1.273715e-04,-4.592574e-05,-4.049191e-05,-1.939359e-05
1418755507962572,1418755507900082,4.179665e-04,-4.883162e-05,2.693797e-04,4.047690e-05,2.319088e-05,8.299200e-06
1418755508025065,1418755507962572,1.858483e-04,3.668825e-05,6.050721e-05,-5.186847e-06,-2.879051e-06,-1.327161e-05
1418755508087557,1418755508025065,3.911355e-05,7.987721e-05,-1.173889e-05,3.215749e-05,1.227818e-07,-2.694982e-06
1418755508150048,1418755508087557,9.327961e-06,-7.806244e-05,1.548767e-05,3.286324e-05,7.197451e-06,-9.834423e-06
1418755508212539,1418755508150048,8.752629e-06,7.201820e-04,-3.141476e-04,-5.614098e-05,-4.602733e-05,-6.858706e-05
1418755508275030,1418755508212539,-2.501375e-04,-1.585262e-04,-2.098668e-04,-8.209119e-05,-2.451363e-05,-1.646828e-05
1418755508337520,1418755508275030,1.435090e-05,-6.654407e-05,8.133862e-05,-7.914064e-05,3.197200e-06,9.757035e-06
1418755508400014,1418755508337520,1.127287e-04,3.900099e-05,-1.847049e-05,-8.009174e-06,-1.133936e-05,6.730161e-07
1418755508462504,1418755508400014,4.199581e-05,-1.289649e-05,-3.219052e-05,5.863275e-05,1.075511e-05,-6.778244e-06
1418755508524995,1418755508462504,1.278571e-05,3.206921e-04,-5.231046e-05,9.967225e-05,8.561348e-07,-1.721436e-05
1418755508587488,1418755508524995,1.254700e-04,1.060280e-04,3.045395e-05,2.148013e-05,-3.865411e-06,-7.670523e-06
1418755508649979,1418755508587488,2.202570e-04,-9.986496e-06,1.544728e-04,-4.632304e-05,3.067646e-05,-1.038054e-05
1418755508712470,1418755508649979,-5.510385e-04,1.955873e-04,-1.892114e-04,4.570047e-06,-3.183500e-05,-1.917648e-05
1418755508774961,1418755508712470,9.532184e-06,7.258936e-06,-3.882892e-05,2.412022e-05,2.089418e-05,1.275944e-05
1418755508837454,1418755508774961,6.064523e-05,9.333067e-05,-3.218074e-05,6.980003e-05,2.007033e-06,-7.553797e-06
1418755508899946,1418755508837454,1.910077e-05,4.561738e-06,-2.691484e-05,4.514352e-05,-3.284382e-07,1.048127e-05
1418755508962436,1418755508899946,-5.929928e-05,1.463477e-04,-9.580787e-05,7.661242e-05,-4.097015e-06,-3.566513e-06
1418755509024928,1418755508962436,-1.468359e-04,-1.232095e-04,-6.900094e-05,2.618221e-05,-1.868226e-05,9.643737e-06
1418755509087418,1418755509024928,1.767028e-04,4.383419e-05,1.249641e-04,-6.591670e-05,1.313110e-05,9.216031e-06
1418755509149910,1418755509087418,7.823101e-05,6.763200e-05,-2.819185e-05,-4.528783e-05,-2.614050e-05,-6.639983e-06
1418755509212403,1418755509149910,-3.993895e-04,-1.144999e-04,-1.366636e-04,4.441989e-06,-1.485304e-05,-9.247148e-06
1418755509274893,1418755509212403,-1.106488e-03,6.049970e-04,-5.314834e-04,-3.988615e-06,-5.085733e-05,-5.272231e-05
1418755509337385,1418755509274893,2.302676e-04,-9.450183e-05,1.256488e-04,-2.467642e-05,6.511399e-06,2.175128e-05
1418755509399877,1418755509337385,-1.099746e-04,3.259691e-05,-9.273644e-05,2.371516e-05,-2.412184e-07,1.232623e-05
1418755509462367,1418755509399877,6.569139e-05,3.373797e-05,-3.115125e-05,-2.959037e-05,-4.415110e-06,-8.506776e-06
1418755509524859,1418755509462367,6.988644e-05,-7.651583e-05,1.492348e-04,-5.514186e-06,9.609428e-06,-1.629987e-05
1418755509587350,1418755509524859,6.020291e-05,-9.605377e-06,5.231604e-05,1.664337e-05,1.098840e-05,1.105091e-05
1418755509649842,1418755509587350,1.407970e-04,-1.519984e-04,-2.835527e-05,-1.598552e-04,-1.111330e-05,2.515409e-05
1418755509712334,1418755509649842,-4.113614e-04,-9.079517e-05,-1.454170e-04,8.716180e-05,5.233687e-06,-2.266176e-06
1418755509774826,1418755509712334,-1.142573e-05,-1.641502e-05,-2.679146e-05,5.050781e-06,1.351214e-05,1.050910e-06
1418755509837318,1418755509774826,8.272231e-06,2.329420e-06,1.793984e-05,-5.824738e-05,7.460088e-07,1.417685e-05
1418755509899809,1418755509837318,2.085685e-04,7.808343e-05,-8.947419e-06,-7.338162e-05,-3.809817e-05,1.626195e-05
1418755509962301,1418755509899809,-2.631314e-04,-1.136015e-04,-9.682968e-05,-4.626413e-05,-1.195861e-05,1.954540e-05
1418755510024792,1418755509962301,-5.873171e-04,1.205876e-04,-3.330117e-04,5.713292e-05,-1.914300e-05,-2.532514e-05
1418755510087283,1418755510024792,4.481235e-06,-8.363665e-05,2.648974e-05,7.097474e-05,1.816953e-05,-1.266021e-05
1418755510149773,1418755510087283,-3.306912e-05,-9.149935e-05,2.669561e-05,6.695304e-05,1.540447e-05,1.969783e-05
1418755510212266,1418755510149773,-2.179480e-04,-8.120733e-05,-1.331591e-04,3.755777e-05,-3.273411e-05,-9.514927e-07
1418755510274758,1418755510212266,-1.648481e-04,-1.873502e-05,1.020636e-04,-3.772753e-06,8.431680e-06,1.512681e-05
1418755510337249,1418755510274758,2.018673e-04,1.936241e-05,1.259960e-04,-2.749560e-05,2.276160e-05,2.756294e-06
1418755510399741,1418755510337249,2.360707e-04,-3.434706e-05,1.303639e-04,-3.668923e-05,9.156832e-06,3.121913e-06
1418755510462232,1418755510399741,-2.536461e-05,3.243102e-06,-8.225707e-05,-5.418772e-06,-1.946526e-05,-1.594030e-05
1418755510524723,1418755510462232,1.282348e-04,2.306694e-04,6.453591e-05,2.076003e-05,8.718292e-06,-3.028598e-05
1418755510587214,1418755510524723,-1.152271e-04,-1.906368e-04,-4.436154e-05,2.943740e-05,-2.759322e-05,1.299434e-05
1418755510649705,1418755510587214,-1.685663e-04,-7.300823e-05,3.497788e-05,-5.057976e-05,3.440942e-05,6.657225e-06
1418755510712198,1418755510649705,1.825594e-04,6.047913e-05,-1.567482e-05,4.191559e-05,-9.337909e-06,1.272094e-06
1418755510774687,1418755510712198,1.500550e-05,6.293443e-05,3.643016e-05,-2.406786e-05,1.659039e-06,-1.596847e-05
1418755510837181,1418755510774687,2.165814e-04,8.986957e-05,5.278405e-05,-2.074110e-05,-3.464488e-06,-6.872285e-06
1418755510899673,1418755510837181,1.878893e-04,9.901592e-05,-2.792387e-08,-5.489574e-05,-2.362191e-05,-1.564431e-05
1418755510962164,1418755510899673,2.670763e-04,-1.319059e-04,6.344542e-05,-4.440360e-07,-6.599390e-06,-6.409958e-06
1418755511024655,1418755510962164,1.219824e-04,-2.271994e-05,1.728185e-05,-2.270306e-05,1.845044e-05,3.973846e-05
1418755511087147,1418755511024655,-3.350397e-04,-1.113318e-04,-1.516271e-04,-2.170304e-05,-3.331833e-05,4.802293e-06
1418755511149637,1418755511087147,1.365013e-04,7.043888e-05,9.209822e-05,-4.937182e-05,9.653447e-06,5.262666e-06
1418755511212130,1418755511149637,-3.084238e-05,-6.402923e-05,-8.288077e-05,-1.024806e-04,-3.747190e-05,-4.154375e-06
1418755511274620,1418755511212130,-1.061422e-04,-6.044177e-04,4.288019e-04,1.284360e-05,5.387880e-05,5.054482e-05
1418755511337112,1418755511274620,-1.700417e-04,-3.679291e-05,-6.660114e-05,-1.729005e-05,-8.090901e-06,2.849067e-06
1418755511399605,1418755511337112,6.563849e-04,-3.218561e-04,-1.951015e-04,7.098279e-05,-1.057736e-05,2.815644e-05
1418755511462095,1418755511399605,-1.011963e-04,-9.549988e-05,-6.412306e-05,-6.501215e-06,-2.798548e-05,1.894542e-05
1418755511524588,1418755511462095,-2.370045e-04,1.870297e-04,-2.173685e-04,4.665605e-05,-6.848039e-06,-2.466966e-05
1418755511587078,1418755511524588,-3.696592e-04,1.147844e-04,-5.859957e-05,2.486065e-05,1.715747e-05,-3.676393e-05
1418755511649570,1418755511587078,2.296340e-04,6.955383e-05,3.363045e-05,2.027790e-05,4.204180e-05,-1.736610e-05
1418755511712062,1418755511649570,-1.414699e-05,-5.354714e-06,-8.095486e-05,-2.403409e-05,-2.198544e-05,1.786115e-05
1418755511774551,1418755511712062,-1.860049e-04,-4.188387e-06,-1.766416e-04,-3.776583e-05,-3.610004e-05,-2.350562e-05
1418755511837044,1418755511774551,-2.102976e-04,-7.369616e-05,-1.216550e-04,-3.176115e-05,5.835266e-06,1.032111e-05
1418755511899536,1418755511837044,2.338840e-04,1.548416e-04,4.054327e-05,-3.130221e-06,9.743834e-06,-3.699402e-06
1418755511962028,1418755511899536,-2.701147e-04,-1.148954e-03,-5.552399e-04,-5.799026e-05,-4.518172e-05,9.938309e-05
1418755512024517,1418755511962028,-2.649607e-05,-4.162944e-05,-3.438317e-05,1.990611e-05,5.610227e-06,4.037117e-06
1418755512087010,1418755512024517,1.805209e-04,5.084223e-05,6.975994e-05,3.667829e-05,2.129889e-05,-2.714176e-06
1418755512149502,1418755512087010,-3.855845e-04,-5.216106e-05,-2.583360e-04,-2.025910e-05,-3.621985e-05,-3.877766e-07
1418755512211993,1418755512149502,-5.875184e-05,8.606108e-05,-5.760416e-05,-4.656876e-05,-1.597702e-05,-2.729462e-05
1418755512274485,1418755512211993,4.803880e-04,-3.794461e-05,2.529198e-04,-4.257196e-05,-3.794248e-07,-9.958393e-06
1418755512336975,1418755512274485,1.363706e-05,2.339266e-05,-1.022241e-04,1.103276e-06,-1.850638e-05,-9.578279e-06
1418755512399465,1418755512336975,-1.278757e-04,9.034101e-06,9.236332e-05,-5.446165e-05,1.521429e-06,2.764969e-07
1418755512461959,1418755512399465,-2.871600e-05,-8.306686e-05,4.524103e-05,1.993086e-05,-1.060875e-05,1.581356e-05
1418755512524451,1418755512461959,5.389329e-04,-1.436005e-04,2.986948e-04,3.311448e-05,3.896335e-05,1.771896e-05
1418755512586942,1418755512524451,-3.555147e-04,1.802026e-04,-7.274473e-05,-1.863674e-05,-1.827384e-05,-2.305880e-05
1418755512649434,1418755512586942,-8.145100e-04,-2.088344e-05,-4.790405e-04,4.003537e-05,-4.003515e-05,1.259718e-06
1418755512711925,1418755512649434,-1.684827e-04,-2.607723e-05,-5.396225e-05,9.410023e-06,7.272877e-06,-1.734374e-05
1418755512774417,1418755512711925,1.368961e-04,-3.729792e-05,3.047756e-05,-6.737802e-05,-1.034130e-05,4.057605e-06
1418755512836908,1418755512774417,-4.106465e-04,-2.075112e-04,-1.859861e-04,-1.094082e-05,-8.811494e-06,-4.069157e-06
